{
"type": "FeatureCollection",
"name": "Adult_Day_Care",
"crs": { "type": "name", "properties": { "name": "urn:ogc:def:crs:OGC:1.3:CRS84" } },
"features": [
{ "type": "Feature", "properties": { "fid": 1, "gis_id": "0_1", "srcid_t": " ", "srcid_i": 0, "edit_date": "2008-04-30T00:00:00Z", "ftype": 0, "subtype": " ", "loc_type": "BC", "loc_meth": "DG_200", "street_tag": "<Null>", "prcl_pin": "0267004", "address": "1001 W. PRATT STREET", "city": "Baltimore", "state": "MD", "zipcode": "21223", "x_coord": 1415814.57329893, "y_coord": 589794.53802715999, "name": "ACTIVE DAY OF MOUNT CLARE", "alias1": " ", "nghbrhd": "Washington Village", "cncldst": "9", "stfid_blk": "245102102001002", "plcdst_no": 0, "plcdst": "9", "usng": "18S UJ 59040 49739", "cntct_nme": " ", "cntct_phn": " ", "cntct_dpt": " ", "globalid": "{B8B00DF7-7EF9-4642-BB17-E21057CE563A}", "url": " " }, "geometry": { "type": "Point", "coordinates": [ -76.634412780320872, 39.285560885935105 ] } },
{ "type": "Feature", "properties": { "fid": 2, "gis_id": "0_2", "srcid_t": " ", "srcid_i": 0, "edit_date": "2008-04-30T00:00:00Z", "ftype": 0, "subtype": " ", "loc_type": "BC", "loc_meth": "GC_100", "street_tag": "<Null>", "prcl_pin": "5695030", "address": "5800 BELAIR ROAD", "city": "Baltimore", "state": "MD", "zipcode": "21206", "x_coord": 1441367.54209523, "y_coord": 611193.53799246997, "name": "ADULT MEDICAL DAY CARE OF OVERLEA", "alias1": " ", "nghbrhd": "Glenham-Belford", "cncldst": "2", "stfid_blk": "245102704011018", "plcdst_no": 0, "plcdst": "4", "usng": "18S UJ 66970 56087", "cntct_nme": " ", "cntct_phn": " ", "cntct_dpt": " ", "globalid": "{578BE186-4C1C-4AC5-AC65-8F5EA9EB76B7}", "url": " " }, "geometry": { "type": "Point", "coordinates": [ -76.543760057505338, 39.343994986766674 ] } },
{ "type": "Feature", "properties": { "fid": 3, "gis_id": "0_3", "srcid_t": " ", "srcid_i": 0, "edit_date": "2008-04-30T00:00:00Z", "ftype": 0, "subtype": " ", "loc_type": "BC", "loc_meth": "DG_200", "street_tag": "<Null>", "prcl_pin": "0504001", "address": "1000 CATHEDRAL STREET", "city": "Baltimore", "state": "MD", "zipcode": "21201", "x_coord": 1420439.2366641001, "y_coord": 595493.61576755997, "name": "ELEANOR EVANS HOOPER ADULT DAY CARE", "alias1": " ", "nghbrhd": "Mid-Town Belvedere", "cncldst": "11", "stfid_blk": "245101102003000", "plcdst_no": 0, "plcdst": "1", "usng": "18S UJ 60488 51444", "cntct_nme": " ", "cntct_phn": " ", "cntct_dpt": " ", "globalid": "{86E6687F-EBD4-4BD2-A2EE-B91A77017BC6}", "url": " " }, "geometry": { "type": "Point", "coordinates": [ -76.617990210712662, 39.301155556114423 ] } },
{ "type": "Feature", "properties": { "fid": 4, "gis_id": "0_4", "srcid_t": " ", "srcid_i": 0, "edit_date": "2008-04-30T00:00:00Z", "ftype": 0, "subtype": " ", "loc_type": "BC", "loc_meth": "DG_200", "street_tag": "<Null>", "prcl_pin": "2491B001", "address": "4200 EDMONDSON AVENUE, SUITE 100", "city": "Baltimore", "state": "MD", "zipcode": "21229", "x_coord": 1401123.3136209699, "y_coord": 592782.83119462, "name": "EXTENDED FAMILT ADULT DAY CARE, INC.", "alias1": " ", "nghbrhd": "Rognel Heights", "cncldst": "8", "stfid_blk": "245102804021011", "plcdst_no": 0, "plcdst": "8", "usng": "18S UJ 54584 50748", "cntct_nme": " ", "cntct_phn": " ", "cntct_dpt": " ", "globalid": "{C9B9D5F4-2FA4-426E-9BB5-FA10E9ABFEC7}", "url": " " }, "geometry": { "type": "Point", "coordinates": [ -76.686278901190875, 39.293915254011864 ] } },
{ "type": "Feature", "properties": { "fid": 5, "gis_id": "0_5", "srcid_t": " ", "srcid_i": 0, "edit_date": "2008-04-30T00:00:00Z", "ftype": 0, "subtype": " ", "loc_type": "BC", "loc_meth": "GC_100", "street_tag": "<Null>", "prcl_pin": "5267040", "address": "1111 E. COLD SPRING LANE", "city": "Baltimore", "state": "MD", "zipcode": "21239", "x_coord": 1425860.45016772, "y_coord": 611331.10922137997, "name": "FEHSENFELD MEDICAL DAY CARE", "alias1": " ", "nghbrhd": "New Northwood", "cncldst": "3", "stfid_blk": "245102709032003", "plcdst_no": 0, "plcdst": "4", "usng": "18S UJ 62246 56233", "cntct_nme": " ", "cntct_phn": " ", "cntct_dpt": " ", "globalid": "{5985B7FA-8634-47B0-877B-4CF12D7263E4}", "url": " " }, "geometry": { "type": "Point", "coordinates": [ -76.598587511866924, 39.344572666766986 ] } },
{ "type": "Feature", "properties": { "fid": 6, "gis_id": "0_6", "srcid_t": " ", "srcid_i": 0, "edit_date": "2008-04-30T00:00:00Z", "ftype": 0, "subtype": " ", "loc_type": "BC", "loc_meth": "GC_100", "street_tag": "<Null>", "prcl_pin": "5953G015", "address": "4825 FRANKFORD AVENUE", "city": "Baltimore", "state": "MD", "zipcode": "21206", "x_coord": 1441326.32007028, "y_coord": 606546.12992515997, "name": "GOLDEN POND ADULT DAY PROGRAM, INC.", "alias1": " ", "nghbrhd": "Frankford", "cncldst": "2", "stfid_blk": "245102602012000", "plcdst_no": 0, "plcdst": "4", "usng": "18S UJ 66926 54671", "cntct_nme": " ", "cntct_phn": " ", "cntct_dpt": " ", "globalid": "{2E25F83E-D9D0-467A-9F82-EF578044CDBA}", "url": " " }, "geometry": { "type": "Point", "coordinates": [ -76.543987892455604, 39.331236446949269 ] } },
{ "type": "Feature", "properties": { "fid": 7, "gis_id": "0_7", "srcid_t": " ", "srcid_i": 0, "edit_date": "2008-04-30T00:00:00Z", "ftype": 0, "subtype": " ", "loc_type": "BC", "loc_meth": "DG_200", "street_tag": "<Null>", "prcl_pin": "4803019", "address": "2605 BANNISTER ROAD", "city": "Baltimore", "state": "MD", "zipcode": "21215", "x_coord": 1408544.12719068, "y_coord": 612148.27250485006, "name": "GRACE OUTREACH ADULTDAY CARE", "alias1": " ", "nghbrhd": "Cylburn", "cncldst": "6", "stfid_blk": "245102717002007", "plcdst_no": 0, "plcdst": "5", "usng": "18S UJ 56976 56598", "cntct_nme": " ", "cntct_phn": " ", "cntct_dpt": " ", "globalid": "{6073ECC3-A859-4AC4-BD43-ADE72AA92946}", "url": " " }, "geometry": { "type": "Point", "coordinates": [ -76.659804038572432, 39.347009235006496 ] } },
{ "type": "Feature", "properties": { "fid": 8, "gis_id": "0_8", "srcid_t": " ", "srcid_i": 0, "edit_date": "2008-04-30T00:00:00Z", "ftype": 0, "subtype": " ", "loc_type": "BC", "loc_meth": "GC_100", "street_tag": "<Null>", "prcl_pin": "4582014", "address": "5146 PARK HEIGHTS AVENUE", "city": "Baltimore", "state": "MD", "zipcode": "21215", "x_coord": 1403959.9768624599, "y_coord": 612743.71021129994, "name": "HAPPY DAYS ADULT DAY CARE", "alias1": " ", "nghbrhd": "Central Park Heights", "cncldst": "6", "stfid_blk": "245102718021001", "plcdst_no": 0, "plcdst": "6", "usng": "18S UJ 55583 56811", "cntct_nme": " ", "cntct_phn": " ", "cntct_dpt": " ", "globalid": "{01124AD5-C1C7-4780-B749-B45454016904}", "url": " " }, "geometry": { "type": "Point", "coordinates": [ -76.676005834597177, 39.34868975261314 ] } },
{ "type": "Feature", "properties": { "fid": 9, "gis_id": "0_9", "srcid_t": " ", "srcid_i": 0, "edit_date": "2008-04-30T00:00:00Z", "ftype": 0, "subtype": " ", "loc_type": "BC", "loc_meth": "DG_200", "street_tag": "<Null>", "prcl_pin": "4283015", "address": "4814 SETON DRIVE", "city": "Baltimore", "state": "MD", "zipcode": "21215", "x_coord": 1395065.58146176, "y_coord": 610861.63384469994, "name": "INTERVALS, INC.", "alias1": " ", "nghbrhd": "Seton Business Park", "cncldst": "5", "stfid_blk": "245102801021010", "plcdst_no": 0, "plcdst": "6", "usng": "18S UJ 52860 56297", "cntct_nme": " ", "cntct_phn": " ", "cntct_dpt": " ", "globalid": "{EDACB80B-0581-4199-8A99-40902D8F1A30}", "url": " " }, "geometry": { "type": "Point", "coordinates": [ -76.707477967470524, 39.343605090477659 ] } },
{ "type": "Feature", "properties": { "fid": 10, "gis_id": "0_10", "srcid_t": " ", "srcid_i": 0, "edit_date": "2008-04-30T00:00:00Z", "ftype": 0, "subtype": " ", "loc_type": "BC", "loc_meth": "GC_100", "street_tag": "<Null>", "prcl_pin": "3105001", "address": "3401 EDGEWOOD ROAD", "city": "Baltimore", "state": "MD", "zipcode": "21215", "x_coord": 1404646.4399653501, "y_coord": 604446.19247462996, "name": "JUEL'S  MEDICAL ADULT DAY CARE CENTER", "alias1": " ", "nghbrhd": "Ashburton", "cncldst": "6", "stfid_blk": "245101511004011", "plcdst_no": 0, "plcdst": "6", "usng": "18S UJ 55736 54278", "cntct_nme": " ", "cntct_phn": " ", "cntct_dpt": " ", "globalid": "{66FEB28D-F39E-455A-AA8A-C6092E42315B}", "url": " " }, "geometry": { "type": "Point", "coordinates": [ -76.673683364561015, 39.325902694487198 ] } },
{ "type": "Feature", "properties": { "fid": 11, "gis_id": "0_11", "srcid_t": " ", "srcid_i": 0, "edit_date": "2008-04-30T00:00:00Z", "ftype": 0, "subtype": " ", "loc_type": "BC", "loc_meth": "DG_200", "street_tag": "<Null>", "prcl_pin": "3594B008", "address": "700 W. 40TH STREET", "city": "Baltimore", "state": "MD", "zipcode": "21211", "x_coord": 1417124.9402549299, "y_coord": 608929.34892374999, "name": "KESWICK MULTI-CARE CENTER ADULT DAY SERVICES", "alias1": " ", "nghbrhd": "Roland Park", "cncldst": "14", "stfid_blk": "245101307003000", "plcdst_no": 0, "plcdst": "5", "usng": "18S UJ 59568 55560", "cntct_nme": " ", "cntct_phn": " ", "cntct_dpt": " ", "globalid": "{57B7A7A0-DC2B-43C0-9F19-35CDB91C811C}", "url": " " }, "geometry": { "type": "Point", "coordinates": [ -76.629509071494127, 39.33808019555569 ] } },
{ "type": "Feature", "properties": { "fid": 12, "gis_id": "0_12", "srcid_t": " ", "srcid_i": 0, "edit_date": "2008-04-30T00:00:00Z", "ftype": 0, "subtype": " ", "loc_type": "BC", "loc_meth": "GC_100", "street_tag": "<Null>", "prcl_pin": "4724001", "address": "2434 W. BELVEDERE AVENUE", "city": "Baltimore", "state": "MD", "zipcode": "21215", "x_coord": 1407293.97992252, "y_coord": 614732.62099574006, "name": "LEVINDALE ADULT DAY  SERVICES", "alias1": " ", "nghbrhd": "Levindale", "cncldst": "6", "stfid_blk": "245102717001002", "plcdst_no": 0, "plcdst": "5", "usng": "18S UJ 56612 57394", "cntct_nme": " ", "cntct_phn": " ", "cntct_dpt": " ", "globalid": "{CEE3AC7D-667B-46F0-A86D-633C3B7355D2}", "url": " " }, "geometry": { "type": "Point", "coordinates": [ -76.664190863558616, 39.354117086211851 ] } },
{ "type": "Feature", "properties": { "fid": 13, "gis_id": "0_13", "srcid_t": " ", "srcid_i": 0, "edit_date": "2008-04-30T00:00:00Z", "ftype": 0, "subtype": " ", "loc_type": "BC", "loc_meth": "GC_100", "street_tag": "<Null>", "prcl_pin": "7490018", "address": "2822 HOLLINS FERRY ROAD", "city": "Baltimore", "state": "MD", "zipcode": "21230", "x_coord": 1412585.03031792, "y_coord": 579079.73771623999, "name": "LIFE ADULT MEDICAL DAY CARE", "alias1": " ", "nghbrhd": "Lakeland", "cncldst": "10", "stfid_blk": "245102502054009", "plcdst_no": 0, "plcdst": "9", "usng": "18S UJ 57984 46496", "cntct_nme": " ", "cntct_phn": " ", "cntct_dpt": " ", "globalid": "{C15BA143-1F73-4163-8174-B62656DB28B3}", "url": " " }, "geometry": { "type": "Point", "coordinates": [ -76.645969140710108, 39.256178431089069 ] } },
{ "type": "Feature", "properties": { "fid": 14, "gis_id": "0_14", "srcid_t": " ", "srcid_i": 0, "edit_date": "2008-04-30T00:00:00Z", "ftype": 0, "subtype": " ", "loc_type": "BC", "loc_meth": "DG_200", "street_tag": "<Null>", "prcl_pin": "3602013", "address": "1915 MARYLAND AVE.", "city": "Baltimore", "state": "MD", "zipcode": "21218", "x_coord": 1420559.93161666, "y_coord": 599420.12018864998, "name": "MARYLAND AVENUE ADULT MEDICAL  DAY CARE", "alias1": " ", "nghbrhd": "Charles North", "cncldst": "12", "stfid_blk": "245101206003020", "plcdst_no": 0, "plcdst": "1", "usng": "18S UJ 60551 52640", "cntct_nme": " ", "cntct_phn": " ", "cntct_dpt": " ", "globalid": "{8A5FAA73-A4DD-4DC4-84CC-A6729FA53EAE}", "url": " " }, "geometry": { "type": "Point", "coordinates": [ -76.617505582805649, 39.311934231657624 ] } },
{ "type": "Feature", "properties": { "fid": 15, "gis_id": "0_15", "srcid_t": " ", "srcid_i": 0, "edit_date": "2008-04-30T00:00:00Z", "ftype": 0, "subtype": " ", "loc_type": "BC", "loc_meth": "DG_200", "street_tag": "<Null>", "prcl_pin": "6004006", "address": "5613-5617 BELAIR ROAD", "city": "Baltimore", "state": "MD", "zipcode": "21206", "x_coord": 1440327.9389974601, "y_coord": 610010.73080380005, "name": "PARADISE ADULT DAY CARE", "alias1": " ", "nghbrhd": "Frankford", "cncldst": "2", "stfid_blk": "245102601025000", "plcdst_no": 0, "plcdst": "4", "usng": "18S UJ 66645 55733", "cntct_nme": " ", "cntct_phn": " ", "cntct_dpt": " ", "globalid": "{075B845F-C9E8-416D-9283-ECB33AE3B2B8}", "url": " " }, "geometry": { "type": "Point", "coordinates": [ -76.547456583211854, 39.340761890359403 ] } },
{ "type": "Feature", "properties": { "fid": 16, "gis_id": "0_16", "srcid_t": " ", "srcid_i": 0, "edit_date": "2008-04-30T00:00:00Z", "ftype": 0, "subtype": " ", "loc_type": "BC", "loc_meth": "DG_200", "street_tag": "<Null>", "prcl_pin": "0375042", "address": "1427 PENNSYLVANIA", "city": "Baltimore", "state": "MD", "zipcode": "21217", "x_coord": 1416493.89829367, "y_coord": 595707.10940672003, "name": "PROVIDENCE ADULT DAY CARE CENTER, INC.", "alias1": " ", "nghbrhd": "Upton", "cncldst": "11", "stfid_blk": "245101402004001", "plcdst_no": 0, "plcdst": "1", "usng": "18S UJ 59287 51536", "cntct_nme": " ", "cntct_phn": " ", "cntct_dpt": " ", "globalid": "{D04825F3-AE7D-41DC-A6CD-E1F19AA5A58F}", "url": " " }, "geometry": { "type": "Point", "coordinates": [ -76.631928593508391, 39.301786195866619 ] } },
{ "type": "Feature", "properties": { "fid": 17, "gis_id": "0_17", "srcid_t": " ", "srcid_i": 0, "edit_date": "2008-04-30T00:00:00Z", "ftype": 0, "subtype": " ", "loc_type": "BC", "loc_meth": "DG_200", "street_tag": "<Null>", "prcl_pin": "2300056", "address": "1821 N. SMALLWOOD STREET", "city": "Baltimore", "state": "MD", "zipcode": "21216", "x_coord": 1410781.1266848401, "y_coord": 598369.36882070999, "name": "RAVENS'S MEDICAL DAY CARE", "alias1": " ", "nghbrhd": "Easterwood", "cncldst": "7", "stfid_blk": "245101503001000", "plcdst_no": 0, "plcdst": "7", "usng": "18S UJ 57564 52385", "cntct_nme": " ", "cntct_phn": " ", "cntct_dpt": " ", "globalid": "{82F5907C-28F2-423A-A9A7-ACDB1119FAEE}", "url": " " }, "geometry": { "type": "Point", "coordinates": [ -76.652079843245346, 39.309156841057806 ] } },
{ "type": "Feature", "properties": { "fid": 18, "gis_id": "0_18", "srcid_t": " ", "srcid_i": 0, "edit_date": "2008-04-30T00:00:00Z", "ftype": 0, "subtype": " ", "loc_type": "BC", "loc_meth": "DG_200", "street_tag": "<Null>", "prcl_pin": "5774A025", "address": "3039 HAMILTON AVENUE", "city": "Baltimore", "state": "MD", "zipcode": "21214", "x_coord": 1436701.67573394, "y_coord": 613636.90843759, "name": "TODAY'S CARE AND FAMILY ADULT MEDICAL DAY CARE", "alias1": " ", "nghbrhd": "Waltherson", "cncldst": "3", "stfid_blk": "245102704023006", "plcdst_no": 0, "plcdst": "4", "usng": "18S UJ 65565 56863", "cntct_nme": " ", "cntct_phn": " ", "cntct_dpt": " ", "globalid": "{75050E7E-07CC-4C91-B364-E356A014EE83}", "url": " " }, "geometry": { "type": "Point", "coordinates": [ -76.560215860063892, 39.350765922838654 ] } },
{ "type": "Feature", "properties": { "fid": 19, "gis_id": "0_19", "srcid_t": " ", "srcid_i": 0, "edit_date": "2008-04-30T00:00:00Z", "ftype": 0, "subtype": " ", "loc_type": "BC", "loc_meth": "GC_100", "street_tag": "<Null>", "prcl_pin": "5210G107", "address": "6200 LOCH RAVEN BLVD.", "city": "Baltimore", "state": "MD", "zipcode": "21239", "x_coord": 1429839.7202243099, "y_coord": 620259.35363127, "name": "TRINITY ADULT MEDICAL DAY CARE, INC", "alias1": " ", "nghbrhd": "Idlewood", "cncldst": "4", "stfid_blk": "245102708011005", "plcdst_no": 0, "plcdst": "4", "usng": "18S UJ 63519 58926", "cntct_nme": " ", "cntct_phn": " ", "cntct_dpt": " ", "globalid": "{771BE658-F392-41F7-9BF8-D58C7DF4C718}", "url": " " }, "geometry": { "type": "Point", "coordinates": [ -76.584373875379924, 39.369035505658942 ] } }
]
}
